[
  {
    "nome": "NOTRE DAME INTERMEDICA MINAS GERAIS SAUDE",
    "categoria": "HOSPITAL",
    "sigla_categoria": "HOSPITAL",
    "tipo_logradouro": "RUA",
    "logradouro": "JOAQUIM DE FIGUEIREDO",
    "numero": "140",
    "bairro": "BARREIRO",
    "latitude": -19.974279583609125,
    "longitude": -44.01704600938014
  },
  {
    "nome": "HOSPITAL INFANTIL DE URGENCIA SAO PAULO LTDA",
    "categoria": "HOSPITAL",
    "sigla_categoria": "HOSPITAL",
    "tipo_logradouro": "RUA",
    "logradouro": "FLAVIO MARQUES LISBOA",
    "numero": "80",
    "bairro": "BARREIRO",
    "latitude": -19.972904047115826,
    "longitude": -44.01565481361669
  },
  {
    "nome": "HOSPITAL METROPOLITANO DOUTOR CELIO DE CASTRO",
    "categoria": "HOSPITAL DA PREFEITURA DE BELO HORIZONTE",
    "sigla_categoria": "HOSPITAL PBH",
    "tipo_logradouro": "RUA",
    "logradouro": "DONA LUIZA",
    "numero": "311",
    "bairro": "MILIONÁRIOS",
    "latitude": -19.985747325185944,
    "longitude": -44.00643044834939
  },
  {
    "nome": "HOSPITAL JULIA KUBITSCHEK",
    "categoria": "HOSPITAL",
    "sigla_categoria": "HOSPITAL",
    "tipo_logradouro": "RUA",
    "logradouro": "DOUTOR CRISTIANO REZENDE",
    "numero": "2745",
    "bairro": "FLÁVIO MARQUES LISBOA",
    "latitude": -19.991013129024655,
    "longitude": -43.999123526741144
  },
  {
    "nome": "HOSPITAL ALBERTO CAVALCANTI",
    "categoria": "HOSPITAL",
    "sigla_categoria": "HOSPITAL",
    "tipo_logradouro": "RUA",
    "logradouro": "CAMILO DE BRITO",
    "numero": "636",
    "bairro": "PADRE EUSTÁQUIO",
    "latitude": -19.9117789774678,
    "longitude": -43.98909518575331
  },
  {
    "nome": "SARAH BELO HORIZONTE",
    "categoria": "HOSPITAL",
    "sigla_categoria": "HOSPITAL",
    "tipo_logradouro": "AVE",
    "logradouro": "AMAZONAS",
    "numero": "5953",
    "bairro": "GAMELEIRA",
    "latitude": -19.932364306977334,
    "longitude": -43.98848677302451
  },
  {
    "nome": "HOSPITAL EDUARDO DE MENEZES",
    "categoria": "HOSPITAL",
    "sigla_categoria": "HOSPITAL",
    "tipo_logradouro": "RUA",
    "logradouro": "DOZE",
    "numero": "2213",
    "bairro": "BONSUCESSO",
    "latitude": -19.986026945617784,
    "longitude": -43.98700748187216
  },
  {
    "nome": "HOSPITAL GALBA VELLOSO",
    "categoria": "HOSPITAL",
    "sigla_categoria": "HOSPITAL",
    "tipo_logradouro": "RUA",
    "logradouro": "CONDE PEREIRA CARNEIRO",
    "numero": "364",
    "bairro": "GAMELEIRA",
    "latitude": -19.927762483646283,
    "longitude": -43.98662278891173
  },
  {
    "nome": "HOSPITAL RG",
    "categoria": "HOSPITAL",
    "sigla_categoria": "HOSPITAL",
    "tipo_logradouro": "RUA",
    "logradouro": "PARA DE MINAS",
    "numero": "295",
    "bairro": "PADRE EUSTÁQUIO",
    "latitude": -19.91495515754991,
    "longitude": -43.98385555736912
  },
  {
    "nome": "INSTITUTO ASSISTENCIAL ESPIRITA ANDRE LUIZ",
    "categoria": "HOSPITAL",
    "sigla_categoria": "HOSPITAL",
    "tipo_logradouro": "RUA",
    "logradouro": "URSULA PAULINO",
    "numero": "7",
    "bairro": "SALGADO FILHO",
    "latitude": -19.950126107617738,
    "longitude": -43.9809403711477
  },
  {
    "nome": "HOSPITAL DA CRIANCA",
    "categoria": "HOSPITAL",
    "sigla_categoria": "HOSPITAL",
    "tipo_logradouro": "RUA",
    "logradouro": "VIAMAO",
    "numero": "510",
    "bairro": "ALTO BARROCA",
    "latitude": -19.93140693651712,
    "longitude": -43.97044862247437
  },
  {
    "nome": "MATERNIDADE UNIMED - UNIDADE GRAJAU",
    "categoria": "HOSPITAL",
    "sigla_categoria": "HOSPITAL",
    "tipo_logradouro": "RUA",
    "logradouro": "VIAMAO",
    "numero": "1171",
    "bairro": "GRAJAÚ",
    "latitude": -19.937387596156533,
    "longitude": -43.96852872681866
  },
  {
    "nome": "UNIDADE TRANSITORIA PSIQUIATRICA CARLOS PRATES",
    "categoria": "HOSPITAL",
    "sigla_categoria": "HOSPITAL",
    "tipo_logradouro": "RUA",
    "logradouro": "PADRE EUSTAQUIO",
    "numero": "807",
    "bairro": "CARLOS PRATES",
    "latitude": -19.91204329468315,
    "longitude": -43.96098758368233
  },
  {
    "nome": "HOSPITAL RAJA PREMIUM",
    "categoria": "HOSPITAL",
    "sigla_categoria": "HOSPITAL",
    "tipo_logradouro": "AVE",
    "logradouro": "RAJA GABAGLIA",
    "numero": "1380",
    "bairro": "GUTIERREZ",
    "latitude": -19.946634900007666,
    "longitude": -43.95966535044902
  },
  {
    "nome": "HOSPITAL LUXEMBURGO",
    "categoria": "HOSPITAL",
    "sigla_categoria": "HOSPITAL",
    "tipo_logradouro": "RUA",
    "logradouro": "JOAQUIM CANDIDO FILHO",
    "numero": "91",
    "bairro": "LUXEMBURGO",
    "latitude": -19.950953275453198,
    "longitude": -43.95861652020423
  },
  {
    "nome": "MATERNIDADE ODETE VALADARES",
    "categoria": "HOSPITAL",
    "sigla_categoria": "HOSPITAL",
    "tipo_logradouro": "AVE",
    "logradouro": "DO CONTORNO",
    "numero": "9494",
    "bairro": "BARRO PRETO",
    "latitude": -19.925503284374475,
    "longitude": -43.95802129797473
  },
  {
    "nome": "CLINICA OCULAR MEDICAL CENTER",
    "categoria": "HOSPITAL",
    "sigla_categoria": "HOSPITAL",
    "tipo_logradouro": "RUA",
    "logradouro": "MARECHAL HERMES",
    "numero": "300",
    "bairro": "GUTIERREZ",
    "latitude": -19.933149888416377,
    "longitude": -43.957781990708796
  },
  {
    "nome": "HOSPITAL MATER DEI S/A - UNIDADE CONTORNO",
    "categoria": "HOSPITAL",
    "sigla_categoria": "HOSPITAL",
    "tipo_logradouro": "AVE",
    "logradouro": "DO CONTORNO",
    "numero": "9090",
    "bairro": "BARRO PRETO",
    "latitude": -19.9268116220431,
    "longitude": -43.95777157665458
  },
  {
    "nome": "HOSPITAL FRAUCENTER",
    "categoria": "HOSPITAL",
    "sigla_categoria": "HOSPITAL",
    "tipo_logradouro": "AVE",
    "logradouro": "RAJA GABAGLIA",
    "numero": "2400",
    "bairro": "ESTORIL",
    "latitude": -19.957330060645347,
    "longitude": -43.95754120708198
  },
  {
    "nome": "HOSPITAL INFANTIL PADRE ANCHIETA",
    "categoria": "HOSPITAL",
    "sigla_categoria": "HOSPITAL",
    "tipo_logradouro": "RUA",
    "logradouro": "MAJOR DELFINO DE PAULA",
    "numero": "2356",
    "bairro": "SÃO FRANCISCO",
    "latitude": -19.879168783325976,
    "longitude": -43.95784259348924
  },
  {
    "nome": "HOSPITAL MADRE TERESA",
    "categoria": "HOSPITAL",
    "sigla_categoria": "HOSPITAL",
    "tipo_logradouro": "AVE",
    "logradouro": "RAJA GABAGLIA",
    "numero": "1002",
    "bairro": "GUTIERREZ",
    "latitude": -19.943811205223202,
    "longitude": -43.957203236329235
  },
  {
    "nome": "HOSPITAL FELICIO ROCHO",
    "categoria": "HOSPITAL",
    "sigla_categoria": "HOSPITAL",
    "tipo_logradouro": "AVE",
    "logradouro": "DO CONTORNO",
    "numero": "9530",
    "bairro": "BARRO PRETO",
    "latitude": -19.922797223104517,
    "longitude": -43.95723774836884
  },
  {
    "nome": "NEOCENTER",
    "categoria": "HOSPITAL",
    "sigla_categoria": "HOSPITAL",
    "tipo_logradouro": "AVE",
    "logradouro": "DO CONTORNO",
    "numero": "9530",
    "bairro": "BARRO PRETO",
    "latitude": -19.922797402128587,
    "longitude": -43.95723746057844
  },
  {
    "nome": "TEOFILO TARANTO CIRURGIA PLASTICA LTDA",
    "categoria": "HOSPITAL",
    "sigla_categoria": "HOSPITAL",
    "tipo_logradouro": "RUA",
    "logradouro": "JUIZ DE FORA",
    "numero": "1209",
    "bairro": "SANTO AGOSTINHO",
    "latitude": -19.928533259002826,
    "longitude": -43.9548161554914
  },
  {
    "nome": "CLINICA AMARAL E FRAGA LTDA",
    "categoria": "HOSPITAL",
    "sigla_categoria": "HOSPITAL",
    "tipo_logradouro": "RUA",
    "logradouro": "ALVARENGA PEIXOTO",
    "numero": "1465",
    "bairro": "SANTO AGOSTINHO",
    "latitude": -19.928490287757377,
    "longitude": -43.954530767012876
  },
  {
    "nome": "HOSPITAL VERA CRUZ",
    "categoria": "HOSPITAL",
    "sigla_categoria": "HOSPITAL",
    "tipo_logradouro": "AVE",
    "logradouro": "BARBACENA",
    "numero": "653",
    "bairro": "BARRO PRETO",
    "latitude": -19.92392202485722,
    "longitude": -43.95288074880277
  },
  {
    "nome": "ASSOCIACAO EVANGELICA BENEFICENTE DE MINAS GERAIS - SOCOR",
    "categoria": "HOSPITAL",
    "sigla_categoria": "HOSPITAL",
    "tipo_logradouro": "AVE",
    "logradouro": "DO CONTORNO",
    "numero": "10500",
    "bairro": "BARRO PRETO",
    "latitude": -19.91794921644096,
    "longitude": -43.9518525611213
  },
  {
    "nome": "HOSPITAL PAULO DE TARSO",
    "categoria": "HOSPITAL",
    "sigla_categoria": "HOSPITAL",
    "tipo_logradouro": "RUA",
    "logradouro": "ESTORIL",
    "numero": "207",
    "bairro": "SÃO FRANCISCO",
    "latitude": -19.870555739977796,
    "longitude": -43.952145913740864
  },
  {
    "nome": "HOSPITAL UNIVERSITARIO CIENCIAS MEDICAS",
    "categoria": "HOSPITAL",
    "sigla_categoria": "HOSPITAL",
    "tipo_logradouro": "RUA",
    "logradouro": "DOS AIMORES",
    "numero": "2896",
    "bairro": "BARRO PRETO",
    "latitude": -19.92497224557832,
    "longitude": -43.95076841772038
  },
  {
    "nome": "HOSPITAL MATER DAI",
    "categoria": "HOSPITAL",
    "sigla_categoria": "HOSPITAL",
    "tipo_logradouro": "RUA",
    "logradouro": "MATO GROSSO",
    "numero": "1120",
    "bairro": "SANTO AGOSTINHO",
    "latitude": -19.92781819207503,
    "longitude": -43.94960686065986
  },
  {
    "nome": "TEMPO CIRURGIA PLASTICA",
    "categoria": "HOSPITAL",
    "sigla_categoria": "HOSPITAL",
    "tipo_logradouro": "AVE",
    "logradouro": "RAJA GABAGLIA",
    "numero": "4987",
    "bairro": "SANTA LÚCIA",
    "latitude": -19.971663329972824,
    "longitude": -43.94871543792819
  },
  {
    "nome": "PHDPACE HOSPITAL",
    "categoria": "HOSPITAL",
    "sigla_categoria": "HOSPITAL",
    "tipo_logradouro": "AVE",
    "logradouro": "DO CONTORNO",
    "numero": "7851",
    "bairro": "CIDADE JARDIM",
    "latitude": -19.935199267472523,
    "longitude": -43.94879657458265
  },
  {
    "nome": "HOSPITAL RISOLETA TOLENTINO NEVES",
    "categoria": "HOSPITAL",
    "sigla_categoria": "HOSPITAL",
    "tipo_logradouro": "RUA",
    "logradouro": "DAS GABIROBAS",
    "numero": "1",
    "bairro": "VILA CLÓRIS",
    "latitude": -19.818157269446058,
    "longitude": -43.949186222792605
  },
  {
    "nome": "CLINICA ORIGEN",
    "categoria": "HOSPITAL",
    "sigla_categoria": "HOSPITAL",
    "tipo_logradouro": "AVE",
    "logradouro": "DO CONTORNO",
    "numero": "7747",
    "bairro": "CIDADE JARDIM",
    "latitude": -19.93548753759294,
    "longitude": -43.948100237614454
  },
  {
    "nome": "HOSPITAL BELO HORIZONTE",
    "categoria": "HOSPITAL",
    "sigla_categoria": "HOSPITAL",
    "tipo_logradouro": "AVE",
    "logradouro": "PRESIDENTE ANTONIO CARLOS",
    "numero": "1694",
    "bairro": "CACHOEIRINHA",
    "latitude": -19.896753549000564,
    "longitude": -43.94831194045367
  },
  {
    "nome": "AMBULATORIO ODILON BHERENS",
    "categoria": "HOSPITAL DA PREFEITURA DE BELO HORIZONTE",
    "sigla_categoria": "HOSPITAL PBH",
    "tipo_logradouro": "RUA",
    "logradouro": "DOUTOR JOAO CARVALHAES DE PAIVA",
    "numero": "85",
    "bairro": "SÃO CRISTÓVÃO",
    "latitude": -19.90393518803832,
    "longitude": -43.947753999282114
  },
  {
    "nome": "BONICA CLINICA DE CIRURGIA PLASTICA LTDA",
    "categoria": "HOSPITAL",
    "sigla_categoria": "HOSPITAL",
    "tipo_logradouro": "AVE",
    "logradouro": "OLEGARIO MACIEL",
    "numero": "1412",
    "bairro": "SANTO AGOSTINHO",
    "latitude": -19.926492250792645,
    "longitude": -43.946421502190674
  },
  {
    "nome": "HOSPITAL ODILON BHERENS",
    "categoria": "HOSPITAL DA PREFEITURA DE BELO HORIZONTE",
    "sigla_categoria": "HOSPITAL PBH",
    "tipo_logradouro": "RUA",
    "logradouro": "PEDRO LESSA",
    "numero": "50",
    "bairro": "SÃO CRISTÓVÃO",
    "latitude": -19.904759942297154,
    "longitude": -43.94631629983652
  },
  {
    "nome": "LT CONSULTORIOS MEDICOS LTDA - ME",
    "categoria": "HOSPITAL",
    "sigla_categoria": "HOSPITAL",
    "tipo_logradouro": "AVE",
    "logradouro": "OLEGARIO MACIEL",
    "numero": "1453",
    "bairro": "LOURDES",
    "latitude": -19.92702118140734,
    "longitude": -43.946068889629906
  },
  {
    "nome": "IMO - INSTITUTO MINEIRO DE OBESIDADE LTDA",
    "categoria": "HOSPITAL",
    "sigla_categoria": "HOSPITAL",
    "tipo_logradouro": "AVE",
    "logradouro": "OLEGARIO MACIEL",
    "numero": "1453",
    "bairro": "LOURDES",
    "latitude": -19.927020999003293,
    "longitude": -43.946068604216016
  },
  {
    "nome": "CLINICA NOTRE DAME",
    "categoria": "HOSPITAL",
    "sigla_categoria": "HOSPITAL",
    "tipo_logradouro": "RUA",
    "logradouro": "DOS AIMORES",
    "numero": "2344",
    "bairro": "LOURDES",
    "latitude": -19.926366810783534,
    "longitude": -43.9457009059337
  },
  {
    "nome": "OTORRINO CENTER",
    "categoria": "HOSPITAL",
    "sigla_categoria": "HOSPITAL",
    "tipo_logradouro": "RUA",
    "logradouro": "BERNARDO GUIMARAES",
    "numero": "1998",
    "bairro": "LOURDES",
    "latitude": -19.92835088959669,
    "longitude": -43.94297053750834
  },
  {
    "nome": "BELISSIMA CIRURGIA PLASTICA",
    "categoria": "HOSPITAL",
    "sigla_categoria": "HOSPITAL",
    "tipo_logradouro": "RUA",
    "logradouro": "RAUL POMPEIA",
    "numero": "33",
    "bairro": "SÃO PEDRO",
    "latitude": -19.94063558444266,
    "longitude": -43.93672265027591
  },
  {
    "nome": "NUCLEO DE OFTALMOLOGIA ESPECIALIZADA",
    "categoria": "HOSPITAL",
    "sigla_categoria": "HOSPITAL",
    "tipo_logradouro": "AVE",
    "logradouro": "JOAO PINHEIRO",
    "numero": "146",
    "bairro": "LOURDES",
    "latitude": -19.926256596016447,
    "longitude": -43.93667917537699
  },
  {
    "nome": "HOSPITAL BELVEDERE",
    "categoria": "HOSPITAL",
    "sigla_categoria": "HOSPITAL",
    "tipo_logradouro": "RUA",
    "logradouro": "AFONSO COSTA REIS",
    "numero": "65",
    "bairro": "BELVEDERE",
    "latitude": -19.968184823197948,
    "longitude": -43.93458186440379
  },
  {
    "nome": "ESTETIKOS NUCLEO DE CIRURGIA PLASTICA",
    "categoria": "HOSPITAL",
    "sigla_categoria": "HOSPITAL",
    "tipo_logradouro": "AVE",
    "logradouro": "PROFESSOR CRISTOVAM DOS SANTOS",
    "numero": "491",
    "bairro": "BELVEDERE",
    "latitude": -19.96897811093871,
    "longitude": -43.93430598815775
  },
  {
    "nome": "COMPLEXO HOSPITALAR SAO FRANCISCO DE ASSIS",
    "categoria": "HOSPITAL",
    "sigla_categoria": "HOSPITAL",
    "tipo_logradouro": "RUA",
    "logradouro": "ITAMARACA",
    "numero": "535",
    "bairro": "CONCÓRDIA",
    "latitude": -19.902962646663045,
    "longitude": -43.9336189750304
  },
  {
    "nome": "INSTITUTO DE DOENCAS CARDIOVASCULARES DE MINAS GERAIS LTDA",
    "categoria": "HOSPITAL",
    "sigla_categoria": "HOSPITAL",
    "tipo_logradouro": "RUA",
    "logradouro": "ITAPAGIPE",
    "numero": "780",
    "bairro": "CONCÓRDIA",
    "latitude": -19.902290635871076,
    "longitude": -43.93352269715023
  },
  {
    "nome": "HOSPITAL SEMPER",
    "categoria": "HOSPITAL",
    "sigla_categoria": "HOSPITAL",
    "tipo_logradouro": "ALA",
    "logradouro": "EZEQUIEL DIAS",
    "numero": "389",
    "bairro": "SANTA EFIGÊNIA",
    "latitude": -19.92589373227107,
    "longitude": -43.932007971510316
  },
  {
    "nome": "HOSPITAL INFANTIL JOAO PAULO II",
    "categoria": "HOSPITAL",
    "sigla_categoria": "HOSPITAL",
    "tipo_logradouro": "ALA",
    "logradouro": "EZEQUIEL DIAS",
    "numero": "345",
    "bairro": "SANTA EFIGÊNIA",
    "latitude": -19.9249769457263,
    "longitude": -43.931700665122534
  },
  {
    "nome": "CLINICA DE OLHOS ENNIO COSCARELLI LTDA",
    "categoria": "HOSPITAL",
    "sigla_categoria": "HOSPITAL",
    "tipo_logradouro": "AVE",
    "logradouro": "BRASIL",
    "numero": "1312",
    "bairro": "FUNCIONÁRIOS",
    "latitude": -19.929394012286405,
    "longitude": -43.931406520077736
  },
  {
    "nome": "HOSPITAL GOVERNADOR ISRAEL PINHEIRO",
    "categoria": "HOSPITAL",
    "sigla_categoria": "HOSPITAL",
    "tipo_logradouro": "ALA",
    "logradouro": "EZEQUIEL DIAS",
    "numero": "225",
    "bairro": "SANTA EFIGÊNIA",
    "latitude": -19.92336299125996,
    "longitude": -43.931290757904634
  },
  {
    "nome": "UROLOGICA",
    "categoria": "HOSPITAL",
    "sigla_categoria": "HOSPITAL",
    "tipo_logradouro": "RUA",
    "logradouro": "PARAIBA",
    "numero": "227",
    "bairro": "FUNCIONÁRIOS",
    "latitude": -19.92829694041533,
    "longitude": -43.93101988234771
  },
  {
    "nome": "HOSPITAL JOAO XXIII",
    "categoria": "HOSPITAL",
    "sigla_categoria": "HOSPITAL",
    "tipo_logradouro": "AVE",
    "logradouro": "PROFESSOR ALFREDO BALENA",
    "numero": "400",
    "bairro": "SANTA EFIGÊNIA",
    "latitude": -19.925810910652938,
    "longitude": -43.93079631655918
  },
  {
    "nome": "CENTRAL PSIQUICA LTDA - CEPSI",
    "categoria": "HOSPITAL",
    "sigla_categoria": "HOSPITAL",
    "tipo_logradouro": "RUA",
    "logradouro": "FRANCISCO DESLANDES",
    "numero": "620",
    "bairro": "ANCHIETA",
    "latitude": -19.949348788702707,
    "longitude": -43.929287624513265
  },
  {
    "nome": "NUCLEO DE EXCELENCIA EM OFTALMOLOGIA LTDA",
    "categoria": "HOSPITAL",
    "sigla_categoria": "HOSPITAL",
    "tipo_logradouro": "AVE",
    "logradouro": "BERNARDO MONTEIRO",
    "numero": "1299",
    "bairro": "FUNCIONÁRIOS",
    "latitude": -19.93006297569967,
    "longitude": -43.928940274191106
  },
  {
    "nome": "CENTRO MEDICO HOSPITALAR INTEGRADO - CMH",
    "categoria": "HOSPITAL",
    "sigla_categoria": "HOSPITAL",
    "tipo_logradouro": "RUA",
    "logradouro": "PIAUI",
    "numero": "2007",
    "bairro": "SAVASSI",
    "latitude": -19.93906672790509,
    "longitude": -43.92876416196025
  },
  {
    "nome": "HOSPITAL DAS CLINICAS DA UFMG",
    "categoria": "HOSPITAL",
    "sigla_categoria": "HOSPITAL",
    "tipo_logradouro": "AVE",
    "logradouro": "PROFESSOR ALFREDO BALENA",
    "numero": "110",
    "bairro": "SANTA EFIGÊNIA",
    "latitude": -19.924323883532395,
    "longitude": -43.92808804018516
  },
  {
    "nome": "INSTITUTO DE OTORRINOLARINGOLOGIA DE MINAS GERAIS LTDA",
    "categoria": "HOSPITAL",
    "sigla_categoria": "HOSPITAL",
    "tipo_logradouro": "AVE",
    "logradouro": "AFONSO PENA",
    "numero": "2928",
    "bairro": "SAVASSI",
    "latitude": -19.936994296871962,
    "longitude": -43.927873500197876
  },
  {
    "nome": "HOSPITAL SANTO IVO",
    "categoria": "HOSPITAL",
    "sigla_categoria": "HOSPITAL",
    "tipo_logradouro": "RUA",
    "logradouro": "MARTINHO CAMPOS",
    "numero": "25",
    "bairro": "CRUZEIRO",
    "latitude": -19.94187440799148,
    "longitude": -43.92769762226432
  },
  {
    "nome": "NEOCENTER MATERNIDADE",
    "categoria": "HOSPITAL",
    "sigla_categoria": "HOSPITAL",
    "tipo_logradouro": "RUA",
    "logradouro": "MARTINHO CAMPOS",
    "numero": "25",
    "bairro": "CRUZEIRO",
    "latitude": -19.941874587541026,
    "longitude": -43.92769742995309
  },
  {
    "nome": "CENTRO CIRURGICO INTEGRADO LTDA",
    "categoria": "HOSPITAL",
    "sigla_categoria": "HOSPITAL",
    "tipo_logradouro": "RUA",
    "logradouro": "PIAUI",
    "numero": "1012",
    "bairro": "FUNCIONÁRIOS",
    "latitude": -19.930284162105377,
    "longitude": -43.92669324619613
  },
  {
    "nome": "INSTITUTO DE OLHOS DE BELO HORIZONTE",
    "categoria": "HOSPITAL",
    "sigla_categoria": "HOSPITAL",
    "tipo_logradouro": "RUA",
    "logradouro": "PADRE ROLIM",
    "numero": "541",
    "bairro": "SANTA EFIGÊNIA",
    "latitude": -19.927406825956304,
    "longitude": -43.92665334412088
  },
  {
    "nome": "CTC SAO LUCAS",
    "categoria": "HOSPITAL",
    "sigla_categoria": "HOSPITAL",
    "tipo_logradouro": "RUA",
    "logradouro": "CEARA",
    "numero": "450",
    "bairro": "SANTA EFIGÊNIA",
    "latitude": -19.925083368574974,
    "longitude": -43.926613618432825
  },
  {
    "nome": "HOSPITAL SAO LUCAS",
    "categoria": "HOSPITAL",
    "sigla_categoria": "HOSPITAL",
    "tipo_logradouro": "AVE",
    "logradouro": "FRANCISCO SALES",
    "numero": "1186",
    "bairro": "SANTA EFIGÊNIA",
    "latitude": -19.925446108218832,
    "longitude": -43.92621850141447
  },
  {
    "nome": "MATERNIDADE E HOSPITAL OCTAVIANO NEVES",
    "categoria": "HOSPITAL",
    "sigla_categoria": "HOSPITAL",
    "tipo_logradouro": "RUA",
    "logradouro": "CEARA",
    "numero": "186",
    "bairro": "SANTA EFIGÊNIA",
    "latitude": -19.92274765699417,
    "longitude": -43.92598125699703
  },
  {
    "nome": "NEOCENTER",
    "categoria": "HOSPITAL",
    "sigla_categoria": "HOSPITAL",
    "tipo_logradouro": "RUA",
    "logradouro": "CEARA",
    "numero": "186",
    "bairro": "SANTA EFIGÊNIA",
    "latitude": -19.922746736161436,
    "longitude": -43.92597839707655
  },
  {
    "nome": "PREMIER HOSPITAL DIA",
    "categoria": "HOSPITAL",
    "sigla_categoria": "HOSPITAL",
    "tipo_logradouro": "RUA",
    "logradouro": "CLAUDIO MANOEL",
    "numero": "48",
    "bairro": "FUNCIONÁRIOS",
    "latitude": -19.935150579158947,
    "longitude": -43.925746390666774
  },
  {
    "nome": "HOSPITAL DE OLHOS RUI MARINHO",
    "categoria": "HOSPITAL",
    "sigla_categoria": "HOSPITAL",
    "tipo_logradouro": "RUA",
    "logradouro": "GONCALVES DIAS",
    "numero": "75",
    "bairro": "FUNCIONÁRIOS",
    "latitude": -19.93430334592506,
    "longitude": -43.92572116183773
  },
  {
    "nome": "SANTA MARIA CENTRO DE ATENCAO EM PSIQUIATRIA",
    "categoria": "HOSPITAL",
    "sigla_categoria": "HOSPITAL",
    "tipo_logradouro": "AVE",
    "logradouro": "DO CONTORNO",
    "numero": "4766",
    "bairro": "FUNCIONÁRIOS",
    "latitude": -19.936033611610036,
    "longitude": -43.925595381772915
  },
  {
    "nome": "HOSPITAL DIA VITORIA",
    "categoria": "HOSPITAL",
    "sigla_categoria": "HOSPITAL",
    "tipo_logradouro": "AVE",
    "logradouro": "DO CONTORNO",
    "numero": "2241",
    "bairro": "SANTA TEREZA",
    "latitude": -19.918405462188684,
    "longitude": -43.92568471185542
  },
  {
    "nome": "HOSPITAL SANTA CASA",
    "categoria": "HOSPITAL",
    "sigla_categoria": "HOSPITAL",
    "tipo_logradouro": "AVE",
    "logradouro": "FRANCISCO SALES",
    "numero": "1111",
    "bairro": "SANTA EFIGÊNIA",
    "latitude": -19.925234460334785,
    "longitude": -43.925614497052095
  },
  {
    "nome": "HOSPITAL MATERMED",
    "categoria": "HOSPITAL",
    "sigla_categoria": "HOSPITAL",
    "tipo_logradouro": "RUA",
    "logradouro": "PADRE ROLIM",
    "numero": "415",
    "bairro": "SANTA EFIGÊNIA",
    "latitude": -19.927706592841602,
    "longitude": -43.9253620898457
  },
  {
    "nome": "BIOVISAO",
    "categoria": "HOSPITAL",
    "sigla_categoria": "HOSPITAL",
    "tipo_logradouro": "AVE",
    "logradouro": "FRANCISCO SALES",
    "numero": "1420",
    "bairro": "SANTA EFIGÊNIA",
    "latitude": -19.92695667849041,
    "longitude": -43.92520349850426
  },
  {
    "nome": "HOSPITAL NOSSA SENHORA APARECIDA",
    "categoria": "HOSPITAL",
    "sigla_categoria": "HOSPITAL",
    "tipo_logradouro": "RUA",
    "logradouro": "JOAQUIM GOUVEIA",
    "numero": "560",
    "bairro": "SÃO PAULO",
    "latitude": -19.86642798926679,
    "longitude": -43.92547455476811
  },
  {
    "nome": "IMOL - INSTITUTO MINEIRO DE OLHOS",
    "categoria": "HOSPITAL",
    "sigla_categoria": "HOSPITAL",
    "tipo_logradouro": "AVE",
    "logradouro": "DO CONTORNO",
    "numero": "4747",
    "bairro": "SERRA",
    "latitude": -19.935092709736768,
    "longitude": -43.92464906059219
  },
  {
    "nome": "PROPLASTICA",
    "categoria": "HOSPITAL",
    "sigla_categoria": "HOSPITAL",
    "tipo_logradouro": "AVE",
    "logradouro": "DO CONTORNO",
    "numero": "4747",
    "bairro": "SERRA",
    "latitude": -19.935093248954807,
    "longitude": -43.92464857921596
  },
  {
    "nome": "UROLIFE CENTER",
    "categoria": "HOSPITAL",
    "sigla_categoria": "HOSPITAL",
    "tipo_logradouro": "AVE",
    "logradouro": "DO CONTORNO",
    "numero": "4747",
    "bairro": "SERRA",
    "latitude": -19.935093248954807,
    "longitude": -43.92464857921596
  },
  {
    "nome": "LIFECENTER SISTEMA DE SAUDE",
    "categoria": "HOSPITAL",
    "sigla_categoria": "HOSPITAL",
    "tipo_logradouro": "AVE",
    "logradouro": "DO CONTORNO",
    "numero": "4747",
    "bairro": "SERRA",
    "latitude": -19.935092615337503,
    "longitude": -43.92464839241321
  },
  {
    "nome": "OPHTALMUS LTDA",
    "categoria": "HOSPITAL",
    "sigla_categoria": "HOSPITAL",
    "tipo_logradouro": "AVE",
    "logradouro": "FRANCISCO SALES",
    "numero": "1614",
    "bairro": "SANTA EFIGÊNIA",
    "latitude": -19.92861464590291,
    "longitude": -43.92441811539874
  },
  {
    "nome": "LITHOCENTER",
    "categoria": "HOSPITAL",
    "sigla_categoria": "HOSPITAL",
    "tipo_logradouro": "RUA",
    "logradouro": "PIAUI",
    "numero": "179",
    "bairro": "SANTA EFIGÊNIA",
    "latitude": -19.92306138818956,
    "longitude": -43.92432537190838
  },
  {
    "nome": "OCULARE HOSPITAL DE OFTALMOLOGIA",
    "categoria": "HOSPITAL",
    "sigla_categoria": "HOSPITAL",
    "tipo_logradouro": "RUA",
    "logradouro": "MARANHAO",
    "numero": "653",
    "bairro": "SANTA EFIGÊNIA",
    "latitude": -19.927520461960214,
    "longitude": -43.92418236766073
  },
  {
    "nome": "HOSPITAL INFANTIL SAO CAMILO UNIMED",
    "categoria": "HOSPITAL",
    "sigla_categoria": "HOSPITAL",
    "tipo_logradouro": "AVE",
    "logradouro": "SILVIANO BRANDAO",
    "numero": "1600",
    "bairro": "HORTO",
    "latitude": -19.91193052658763,
    "longitude": -43.92291064453514
  },
  {
    "nome": "NEOCENTER",
    "categoria": "HOSPITAL",
    "sigla_categoria": "HOSPITAL",
    "tipo_logradouro": "AVE",
    "logradouro": "SILVIANO BRANDAO",
    "numero": "1600",
    "bairro": "HORTO",
    "latitude": -19.911998650055164,
    "longitude": -43.922909896746376
  },
  {
    "nome": "HOSPITAL DA POLICIA MILITAR",
    "categoria": "HOSPITAL",
    "sigla_categoria": "HOSPITAL",
    "tipo_logradouro": "AVE",
    "logradouro": "DO CONTORNO",
    "numero": "2787",
    "bairro": "SANTA EFIGÊNIA",
    "latitude": -19.921340729316537,
    "longitude": -43.92209905527993
  },
  {
    "nome": "HOSPITAL ARAPIARA",
    "categoria": "HOSPITAL",
    "sigla_categoria": "HOSPITAL",
    "tipo_logradouro": "AVE",
    "logradouro": "DO CONTORNO",
    "numero": "2983",
    "bairro": "SANTA EFIGÊNIA",
    "latitude": -19.92199891817535,
    "longitude": -43.920661245241114
  },
  {
    "nome": "HOSPITAL UNIMED - UNIDADE CONTORNO",
    "categoria": "HOSPITAL",
    "sigla_categoria": "HOSPITAL",
    "tipo_logradouro": "AVE",
    "logradouro": "DO CONTORNO",
    "numero": "3097",
    "bairro": "SANTA EFIGÊNIA",
    "latitude": -19.922210529303623,
    "longitude": -43.91964959480657
  },
  {
    "nome": "CLINICA MANGABEIRAS - CUIDADOS EM PSIQUIATRIA",
    "categoria": "HOSPITAL",
    "sigla_categoria": "HOSPITAL",
    "tipo_logradouro": "AVE",
    "logradouro": "DOS BANDEIRANTES",
    "numero": "1929",
    "bairro": "SERRA",
    "latitude": -19.94871908545458,
    "longitude": -43.91932094852904
  },
  {
    "nome": "SERVICOS MEDICOS HOSPITALARES SANTA FE LTDA",
    "categoria": "HOSPITAL",
    "sigla_categoria": "HOSPITAL",
    "tipo_logradouro": "RUA",
    "logradouro": "POUSO ALEGRE",
    "numero": "2111",
    "bairro": "HORTO",
    "latitude": -19.912736462704604,
    "longitude": -43.9194642254396
  },
  {
    "nome": "CASA DE SAUDE E MATERNIDADE SANTA FE",
    "categoria": "HOSPITAL",
    "sigla_categoria": "HOSPITAL",
    "tipo_logradouro": "RUA",
    "logradouro": "POUSO ALEGRE",
    "numero": "2111",
    "bairro": "HORTO",
    "latitude": -19.912736280840555,
    "longitude": -43.919464035611135
  },
  {
    "nome": "UNINEO MG LTDA",
    "categoria": "HOSPITAL",
    "sigla_categoria": "HOSPITAL",
    "tipo_logradouro": "RUA",
    "logradouro": "POUSO ALEGRE",
    "numero": "2111",
    "bairro": "HORTO",
    "latitude": -19.912735906665052,
    "longitude": -43.91946193645206
  },
  {
    "nome": "INSTITUTO RAUL SOARES",
    "categoria": "HOSPITAL",
    "sigla_categoria": "HOSPITAL",
    "tipo_logradouro": "AVE",
    "logradouro": "DO CONTORNO",
    "numero": "3017",
    "bairro": "SANTA EFIGÊNIA",
    "latitude": -19.92236487078528,
    "longitude": -43.91919120755688
  },
  {
    "nome": "HOSPITAL MARIO PENNA",
    "categoria": "HOSPITAL",
    "sigla_categoria": "HOSPITAL",
    "tipo_logradouro": "AVE",
    "logradouro": "CHURCHILL",
    "numero": "232",
    "bairro": "SANTA EFIGÊNIA",
    "latitude": -19.92226490354946,
    "longitude": -43.91694379341091
  },
  {
    "nome": "HOSPITAL SOFIA FELDMAN",
    "categoria": "HOSPITAL",
    "sigla_categoria": "HOSPITAL",
    "tipo_logradouro": "RUA",
    "logradouro": "ANTONIO BANDEIRA",
    "numero": "1060",
    "bairro": "TUPI B",
    "latitude": -19.83606529721979,
    "longitude": -43.915012668402824
  },
  {
    "nome": "FUNDACAO HILTON ROCHA",
    "categoria": "HOSPITAL",
    "sigla_categoria": "HOSPITAL",
    "tipo_logradouro": "AVE",
    "logradouro": "JOSE DE PATROCINIO PONTES",
    "numero": "1355",
    "bairro": "MANGABEIRAS",
    "latitude": -19.958823313142044,
    "longitude": -43.912813167208846
  },
  {
    "nome": "INSTITUTO ORIZONTI",
    "categoria": "HOSPITAL",
    "sigla_categoria": "HOSPITAL",
    "tipo_logradouro": "AVE",
    "logradouro": "JOSE DE PATROCINIO PONTES",
    "numero": "1355",
    "bairro": "MANGABEIRAS",
    "latitude": -19.958823848809708,
    "longitude": -43.912812112385566
  },
  {
    "nome": "HOSPITAL EVANGELICO",
    "categoria": "HOSPITAL",
    "sigla_categoria": "HOSPITAL",
    "tipo_logradouro": "RUA",
    "logradouro": "DOUTOR ALIPIO GOULART",
    "numero": "25",
    "bairro": "SERRA",
    "latitude": -19.938734357347283,
    "longitude": -43.91273888306254
  },
  {
    "nome": "HOSPITAL DA BALEIA",
    "categoria": "HOSPITAL",
    "sigla_categoria": "HOSPITAL",
    "tipo_logradouro": "RUA",
    "logradouro": "BENJAMIM GUIMARAES",
    "numero": "1464",
    "bairro": "BALEIA",
    "latitude": -19.925060838944315,
    "longitude": -43.8966380102442
  }
]